City,Name,Lat,Long
NYC,Astor Pl,40.730054,-73.99107
NYC,Canal St,40.718803,-74.000193
NYC,50th St,40.761728,-73.983849
NYC,Bergen St,40.68086214,-73.97499915
NYC,Pennsylvania Ave,40.66471445,-73.89488591
NYC,238th St,40.884667,-73.90087
NYC,Cathedral Pkwy (110th St),40.80058156,-73.95806671
NYC,Kingston - Throop Aves,40.679919,-73.940859
NYC,65th St,40.74971953,-73.89878838
NYC,36th St,40.75196004,-73.92901818
NYC,Delancey St - Essex St,40.71830606,-73.9874094
NYC,Van Siclen Ave,40.67802821,-73.89165773
NYC,Norwood Ave,40.68152,-73.879626
NYC,104th-102nd Sts,40.695166,-73.844435
NYC,DeKalb Ave,40.69064812,-73.98177094
NYC,Beach 105th St,40.58326844,-73.82758075
NYC,Beach 90th St,40.58809156,-73.8136514
NYC,Freeman St,40.82998745,-73.89175225
NYC,Intervale Ave,40.82214213,-73.89661738
NYC,182nd-183rd Sts,40.856093,-73.900741
NYC,174th-175th Sts,40.8459,-73.910136
NYC,167th St,40.833769,-73.918432
NYC,Mets - Willets Point,40.754622,-73.845625
NYC,Junction Blvd,40.749145,-73.869527
NYC,Flushing - Main St,40.7596,-73.83003
NYC,Buhre Ave,40.84681,-73.832569
NYC,3rd Ave - 138th St,40.810476,-73.926138
NYC,Castle Hill Ave,40.834255,-73.851222
NYC,Brooklyn Bridge - City Hall,40.713065,-74.004131
NYC,Zerega Ave,40.836488,-73.847036
NYC,Grand Central - 42nd St,40.75180743,-73.9767133
NYC,33rd St,40.746081,-73.982076
NYC,96th St,40.785672,-73.95107
NYC,77th St,40.77362,-73.959874
NYC,Chauncey St,40.6828513,-73.91038357
NYC,Union St,40.67731567,-73.98311
NYC,Elmhurst Ave,40.74237008,-73.88203475
NYC,Ralph Ave,40.678822,-73.920786
NYC,Pelham Pkwy,40.85719241,-73.86748068
NYC,Gun Hill Rd,40.87783939,-73.86613411
NYC,Nereid Ave (238 St),40.89828652,-73.85431531
NYC,Franklin Ave,40.67076515,-73.95809974
NYC,Simpson St,40.82397684,-73.8930664
NYC,Bronx Park East,40.84876867,-73.86835609
NYC,Winthrop St,40.65665931,-73.95007935
NYC,Van Siclen Ave,40.66551796,-73.88940492
NYC,149th St - Grand Concourse,40.81830344,-73.92738475
NYC,161st St - Yankee Stadium,40.82823033,-73.925692
NYC,Lexington Ave - 59th St,40.762526,-73.967967
NYC,E 149th St,40.812118,-73.904098
NYC,Morrison Av - Soundview,40.829521,-73.874516
NYC,Whitlock Ave,40.826525,-73.886283
NYC,St Lawrence Ave,40.831509,-73.867618
NYC,Woodside - 61st St,40.74563,-73.902984
NYC,Far Rockaway - Mott Ave,40.603995,-73.755405
NYC,72nd St,40.7755194,-73.97633658
NYC,96th St,40.7916188,-73.96460246
NYC,168th St,40.840719,-73.939561
NYC,Kingsbridge Rd,40.866978,-73.893509
NYC,42nd St - Bryant Pk,40.754184,-73.984591
NYC,Prospect Park,40.66163346,-73.9620313
NYC,55th St,40.63147876,-73.99534883
NYC,Jamaica - Van Wyck,40.70289855,-73.81701287
NYC,Kew Gardens - Union Tpke,40.71403482,-73.83037027
NYC,Sutphin Blvd - Archer Av,40.70038242,-73.80800472
NYC,Court Sq - 23rd St,40.74776812,-73.9460547
NYC,67th Ave,40.72650548,-73.85286048
NYC,Grand Ave - Newtown,40.73681342,-73.87722086
NYC,Ditmas Ave,40.63611867,-73.978172
NYC,Classon Ave,40.688889,-73.95999
NYC,Broadway,40.70612658,-73.95031226
NYC,Lorimer St,40.714072,-73.950248
NYC,Sutter Ave,40.669145,-73.901916
NYC,Wilson Ave,40.68886654,-73.9039586
NYC,Halsey St,40.68641527,-73.91663888
NYC,Lorimer St,40.703844,-73.947355
NYC,8th Ave,40.634971,-74.011516
NYC,36th Ave,40.756442,-73.929862
NYC,Broadway,40.761432,-73.925823
NYC,Times Sq - 42nd St,40.754612,-73.986768
NYC,Grand Central - 42nd St,40.75276867,-73.979189
NYC,Park Pl,40.67477167,-73.957624
NYC,111th St,40.684331,-73.832163
NYC,W 4th St - Washington Sq (Lower),40.73225449,-74.00030815
NYC,51st St,40.757107,-73.97192
NYC,86th St,40.788644,-73.976218
NYC,233rd St,40.89314324,-73.8573624
NYC,66th St - Lincoln Ctr,40.77344,-73.982209
NYC,Hunts Point Ave,40.820948,-73.890549
NYC,Canal St,40.722854,-74.006277
NYC,Middletown Rd,40.843863,-73.836322
NYC,23rd St,40.739864,-73.986599
NYC,Court Sq,40.747023,-73.945264
NYC,59th St - Columbus Circle,40.768247,-73.981929
NYC,Hunters Point Ave,40.742216,-73.948916
NYC,23rd St,40.744081,-73.995657
NYC,Houston St,40.728251,-74.005367
NYC,104th St,40.681711,-73.837683
NYC,Broad Channel,40.60840218,-73.81583269
NYC,Ocean Pkwy,40.57631167,-73.968501
NYC,Vernon Blvd - Jackson Ave,40.742626,-73.953581
NYC,68th St - Hunter College,40.768141,-73.96387
NYC,Queensboro Plz,40.75063565,-73.94016354
NYC,Rockaway Blvd,40.680429,-73.843853
NYC,Union Sq - 14th St,40.734673,-73.989951
NYC,Bedford - Nostrand Aves,40.689627,-73.953522
NYC,15th St - Prospect Park,40.66003569,-73.97973581
NYC,7th Ave,40.66624469,-73.98025118
NYC,Ft Hamilton Pkwy,40.65078167,-73.975776
NYC,Church Ave,40.644272,-73.97972116
NYC,Beverly Rd,40.6439046,-73.9643578
NYC,Church Ave,40.65049325,-73.96288246
NYC,Newkirk Ave,40.63514194,-73.96269487
NYC,Parkside Ave,40.65507304,-73.96145344
NYC,Grand Army Plaza,40.6752947,-73.97095633
NYC,Atlantic Av - Barclay's Center,40.68442017,-73.97754994
NYC,Rockaway Ave,40.67834,-73.911946
NYC,Fulton St,40.687119,-73.975375
NYC,Clinton - Washington Aves,40.688094,-73.966796
NYC,7th Ave,40.67710218,-73.97285279
NYC,Atlantic Av - Barclay's Center,40.68448832,-73.97678344
NYC,Atlantic Av - Barclay's Center,40.68366567,-73.97881
NYC,Borough Hall,40.692404,-73.990151
NYC,Aqueduct Racetrack,40.672097,-73.835919
NYC,Morris Park,40.854364,-73.860495
NYC,Pelham Pkwy,40.858985,-73.855359
NYC,Nostrand Ave,40.680438,-73.950426
NYC,Nevins St,40.68831058,-73.9804068
NYC,Eastern Pkwy - Bklyn Museum,40.67203224,-73.96422204
NYC,Beverly Rd,40.64512352,-73.94884798
NYC,Church Ave,40.65086069,-73.94945514
NYC,Newkirk Ave,40.63999124,-73.94829991
NYC,Brooklyn College - Flatbush Ave,40.63284241,-73.94754121
NYC,Sterling St,40.66277299,-73.95072891
NYC,Crown Hts - Utica Ave,40.66897831,-73.93293256
NYC,Kingston Ave,40.66948145,-73.94215978
NYC,Nassau Ave,40.72448,-73.951183
NYC,Greenpoint Ave,40.731267,-73.954425
NYC,Marcy Ave,40.708383,-73.957832
NYC,Hewes St,40.70689,-73.953488
NYC,138th St - Grand Concourse,40.813224,-73.929849
NYC,5th Ave - 53rd St,40.76008683,-73.97524851
NYC,Lexington Ave - 53rd St,40.75746831,-73.96907237
NYC,28th St,40.745454,-73.988698
NYC,Herald Sq - 34th St,40.74964456,-73.98793683
NYC,1st Ave,40.73097498,-73.98168087
NYC,Times Sq - 42nd St,40.755983,-73.986229
NYC,Metropolitan Ave,40.712774,-73.951424
NYC,Grand St,40.711576,-73.940497
NYC,Graham Ave,40.714576,-73.943944
NYC,Bedford Ave,40.717174,-73.956665
NYC,Montrose Ave,40.70739106,-73.93979285
NYC,Long Island City - Court Sq,40.74630503,-73.9438156
NYC,21st St,40.74412867,-73.9496
NYC,39th Ave,40.75276306,-73.93285138
NYC,145th St,40.826551,-73.95036
NYC,157th St,40.834041,-73.94489
NYC,96th St,40.793919,-73.972323
NYC,103rd St,40.799446,-73.968379
NYC,Central Park North (110th St),40.799075,-73.951822
NYC,103rd St,40.79606074,-73.96137008
NYC,72nd St,40.778453,-73.98197
NYC,81st St,40.78134608,-73.97209795
NYC,75th Ave,40.71804465,-73.83692369
NYC,86th St,40.78582305,-73.96882849
NYC,Cathedral Pkwy (110th St),40.803967,-73.966847
NYC,116th St - Columbia University,40.807722,-73.96411
NYC,125th St,40.807754,-73.945495
NYC,135th St,40.814229,-73.94077
NYC,116th St,40.802098,-73.949625
NYC,Tremont Ave,40.85041,-73.905227
NYC,137th St - City College,40.822008,-73.953676
NYC,145th St,40.820421,-73.936245
NYC,176th St,40.84848,-73.911794
NYC,Burnside Ave,40.853453,-73.907684
NYC,170th St,40.839306,-73.9134
NYC,168th St,40.840556,-73.940133
NYC,181st St,40.849505,-73.933596
NYC,191st St,40.855225,-73.929412
NYC,175th St,40.847391,-73.939704
NYC,Beach 44th St,40.592943,-73.776013
NYC,Beach 60th St,40.592374,-73.788522
NYC,Beach 98th St,40.58538569,-73.82052059
NYC,Rockaway Park - Beach 116 St,40.58095587,-73.83559009
NYC,Beach 36th St,40.595398,-73.768175
NYC,Beach 25th St,40.600066,-73.761353
NYC,Parsons Blvd,40.707572,-73.803289
NYC,169th St,40.7105175,-73.7934742
NYC,103rd St - Corona Plaza,40.749865,-73.8627
NYC,111th St,40.75173,-73.855334
NYC,63rd Dr - Rego Park,40.72976397,-73.8616182
NYC,Grant Ave,40.677044,-73.86505
NYC,79th St,40.783934,-73.979917
NYC,Atlantic Ave,40.67534467,-73.903097
NYC,Christopher St - Sheridan Sq,40.733422,-74.002906
NYC,Ozone Park - Lefferts Blvd,40.685951,-73.825798
NYC,Times Sq - 42nd St,40.755477,-73.987691
NYC,W 8th St - NY Aquarium,40.57603382,-73.97595787
NYC,28th St,40.747215,-73.993365
NYC,28th St,40.74307,-73.984264
NYC,Pelham Bay Park,40.852462,-73.828121
NYC,Westchester Sq - E Tremont Ave,40.839892,-73.842952
NYC,18th St,40.74104,-73.997871
NYC,Grand Central - 42nd St,40.751431,-73.976041
NYC,Beach 67th St,40.590927,-73.796924
NYC,W 4th St - Washington Sq (Upper),40.732338,-74.000495
NYC,85th St - Forest Pky,40.692427,-73.860087
NYC,Woodhaven Blvd,40.693704,-73.852052
NYC,111th St,40.69711481,-73.83679338
NYC,121st St,40.700482,-73.828349
NYC,Halsey St,40.695518,-73.903934
NYC,Myrtle - Wyckoff Aves,40.69947106,-73.91097572
NYC,New Lots Ave,40.66631493,-73.88411071
NYC,Van Siclen Ave,40.67271,-73.890358
NYC,Cleveland St,40.679778,-73.885194
NYC,Livonia Ave,40.66405727,-73.90056237
NYC,Junius St,40.663589,-73.90244864
NYC,Rockaway Ave,40.66261749,-73.90895834
NYC,Canarsie - Rockaway Pkwy,40.64665367,-73.90185
NYC,E 105th St,40.65046879,-73.89954769
NYC,Saratoga Ave,40.66152979,-73.91633025
NYC,Sutter Ave - Rutland Road,40.66476679,-73.92252119
NYC,New Lots Ave,40.65891477,-73.89927796
NYC,Broadway Junction,40.679366,-73.90429
NYC,Alabama Ave,40.676998,-73.898526
NYC,Shepherd Ave,40.67413,-73.88075
NYC,Crescent St,40.68315266,-73.87392925
NYC,Cypress Hills,40.689616,-73.873322
NYC,75th St - Eldert Ln,40.69129,-73.867288
NYC,69th St,40.746325,-73.896403
NYC,74th St - Broadway,40.74686757,-73.89120513
NYC,Woodhaven Blvd - Queens Mall,40.73309737,-73.86943209
NYC,Myrtle - Wyckoff Aves,40.699454,-73.912179
NYC,Seneca Ave,40.702919,-73.907582
NYC,DeKalb Ave,40.703693,-73.918232
NYC,52nd St,40.744149,-73.912549
NYC,46th St,40.75631695,-73.91352175
NYC,Northern Blvd,40.75282483,-73.90606508
NYC,46th St,40.743132,-73.918435
NYC,82nd St - Jackson Hts,40.747659,-73.883697
NYC,90th St - Elmhurst Av,40.748408,-73.876613
NYC,Howard Beach - JFK Airport,40.660476,-73.830301
NYC,Aqueduct - North Conduit Av,40.668234,-73.834058
NYC,Briarwood - Van Wyck Blvd,40.70916182,-73.82069264
NYC,Forest Hills - 71st Av,40.72159431,-73.84451672
NYC,Sutphin Blvd,40.705418,-73.810833
NYC,Jamaica Ctr - Parsons / Archer,40.70206738,-73.80109632
NYC,225th St,40.88802826,-73.86021462
NYC,Elder Ave,40.828584,-73.879159
NYC,Longwood Ave,40.816104,-73.896435
NYC,Astoria Blvd,40.770037,-73.918095
NYC,Astoria - Ditmars Blvd,40.77503567,-73.912034
NYC,Jackson Ave,40.81643747,-73.90770194
NYC,Prospect Ave,40.81948726,-73.90177779
NYC,Cypress Ave,40.805368,-73.914042
NYC,174th St,40.83719555,-73.8876936
NYC,Allerton Ave,40.86548338,-73.86723423
NYC,E 143rd St - St Mary's St,40.808719,-73.907657
NYC,Kingsbridge Rd,40.86776,-73.897174
NYC,Bedford Park Blvd - Lehman College,40.873412,-73.890064
NYC,Harlem - 148 St,40.82388,-73.93647
NYC,Mt Eden Ave,40.844434,-73.914685
NYC,Fordham Rd,40.861296,-73.897749
NYC,170th St,40.840075,-73.917791
NYC,Bedford Park Blvd,40.873244,-73.887138
NYC,Marble Hill - 225th St,40.874561,-73.909831
NYC,231st St,40.878856,-73.904834
NYC,215th St,40.869444,-73.915279
NYC,207th St,40.864614,-73.918819
NYC,Inwood - 207th St,40.868072,-73.919899
NYC,Van Cortlandt Park - 242nd St,40.889248,-73.898583
NYC,West Farms Sq - E Tremont Av,40.84020763,-73.87996128
NYC,219th St,40.88388797,-73.86250971
NYC,Mosholu Pkwy,40.87975,-73.884655
NYC,Norwood - 205th St,40.874811,-73.878855
NYC,Burke Ave,40.8712588,-73.86705362
NYC,Baychester Ave,40.878663,-73.838591
NYC,Eastchester - Dyre Ave,40.8883,-73.830834
NYC,Jamaica - 179th St,40.71264567,-73.783817
NYC,Wakefield - 241st St,40.903125,-73.85062
NYC,Botanic Garden,40.67034267,-73.959245
NYC,Bushwick - Aberdeen,40.68286063,-73.90526176
NYC,Broadway Junction,40.67845625,-73.90311758
NYC,Gun Hill Rd,40.869526,-73.846384
NYC,E 180th St,40.84186304,-73.8733461
NYC,Dyckman St,40.860531,-73.925536
NYC,125th St,40.815581,-73.958372
NYC,Franklin Ave - Fulton St,40.68059567,-73.955827
NYC,149th St - Grand Concourse,40.81833014,-73.92672247
NYC,3rd Ave - 149th St,40.81602925,-73.91779153
NYC,167th St,40.835537,-73.9214
NYC,Brook Ave,40.807566,-73.91924
NYC,33rd St,40.744587,-73.930997
NYC,40th St,40.743781,-73.924016
NYC,145th St,40.82476636,-73.94408793
NYC,155th St,40.830135,-73.938209
NYC,161st St - Yankee Stadium,40.827905,-73.925651
NYC,Utica Ave,40.679364,-73.930729
NYC,Steinway St,40.75698736,-73.92052647
NYC,Kosciuszko St,40.693172,-73.928509
NYC,Gates Ave,40.689584,-73.922156
NYC,Central Ave,40.697873,-73.927243
NYC,Knickerbocker Ave,40.69866,-73.91972
NYC,30th Ave,40.76677867,-73.921479
NYC,Jefferson St,40.70660667,-73.922913
NYC,Morgan Ave,40.70615167,-73.933147
NYC,Queens Plz,40.74891772,-73.93713824
NYC,18th Ave,40.62975467,-73.976971
NYC,77th St,40.62974167,-74.02551
NYC,Bay Ridge Ave,40.63496667,-74.023377
NYC,50th St,40.63626089,-73.99465878
NYC,Ft Hamilton Pkwy,40.63138567,-74.005351
NYC,25th Ave,40.59770367,-73.986829
NYC,Bay Pky,40.60195046,-73.9936762
NYC,20th Ave,40.617109,-73.984522
NYC,18th Ave,40.620687,-73.990454
NYC,Bay Ridge - 95th St,40.61662167,-74.030876
NYC,86th St,40.62268667,-74.028398
NYC,79th St,40.61315893,-74.00058287
NYC,71st St,40.61925871,-73.99884095
NYC,20th Ave,40.604677,-73.99817432
NYC,18th Ave,40.60773573,-74.00159259
NYC,62nd St,40.62622446,-73.99685725
NYC,New Utrecht Ave,40.62484167,-73.996353
NYC,Ave U,40.59592483,-73.97337642
NYC,Kings Hwy,40.60325841,-73.97235531
NYC,Brighton Beach,40.5777102,-73.96135379
NYC,Sheepshead Bay,40.58654755,-73.95405791
NYC,Ave U,40.59930895,-73.95581122
NYC,Kings Hwy,40.60863865,-73.95760874
NYC,Ave U,40.597236,-73.979084
NYC,Kings Hwy,40.604059,-73.980373
NYC,Neptune Ave,40.58073876,-73.97459273
NYC,Ave X,40.58944967,-73.974266
NYC,Bay 50th St,40.58884067,-73.983765
NYC,Gravesend - 86th St,40.592465,-73.978189
NYC,Ave P,40.60884281,-73.97300282
NYC,Ave N,40.61435671,-73.97404851
NYC,Bay Pky,40.62073162,-73.97525698
NYC,Ave M,40.61739774,-73.95924311
NYC,Bay Pky,40.61145579,-73.98178001
NYC,Ave I,40.62501744,-73.97606933
NYC,Ave J,40.62502282,-73.96069316
NYC,Ave H,40.62920838,-73.96151794
NYC,Neck Rd,40.59532169,-73.95507827
NYC,21st St - Queensbridge,40.75373927,-73.94193761
NYC,50th St,40.762456,-73.985984
NYC,7th Ave,40.76297015,-73.98169782
NYC,47th-50th Sts - Rockefeller Ctr,40.758641,-73.981331
NYC,57th St,40.764085,-73.977368
NYC,Lexington Ave - 63rd St,40.76461809,-73.96608964
NYC,Roosevelt Island - Main St,40.759172,-73.953235
NYC,59th St - Columbus Circle,40.76824953,-73.98164872
NYC,49th St,40.75980197,-73.98420957
NYC,57th St,40.76456553,-73.98072973
NYC,5th Ave - 59th St,40.764811,-73.973347
NYC,Lexington Ave - 59th St,40.76270886,-73.96737502
NYC,34th St - Penn Station,40.750373,-73.991057
NYC,Times Sq - 42nd St,40.75529,-73.987495
NYC,Fulton St,40.71016217,-74.00762309
NYC,Chambers St,40.714111,-74.00858474
NYC,42nd St - Port Authority Bus Term,40.757308,-73.989735
NYC,Myrtle-Willoughby Aves,40.694619,-73.949067
NYC,Flushing Ave,40.70037667,-73.950234
NYC,23rd St,40.74295432,-73.992765
NYC,Herald Sq - 34th St,40.7497894,-73.98777189
NYC,Hoyt - Schermerhorn Sts,40.68840848,-73.98503624
NYC,Jay St - MetroTech,40.69247064,-73.98721815
NYC,East Broadway,40.713855,-73.990177
NYC,Delancey St - Essex St,40.71868074,-73.98807807
NYC,Lower East Side - 2nd Ave,40.72340167,-73.989938
NYC,Flushing Ave,40.7004044,-73.94137735
NYC,Myrtle Ave,40.697195,-73.935623
NYC,4th Av - 9th St,40.67027167,-73.989779
NYC,Smith - 9th Sts,40.67364106,-73.99589173
NYC,Bergen St,40.68611055,-73.9907565
NYC,Jay St - MetroTech,40.6922554,-73.98605668
NYC,Court St,40.69419648,-73.99181831
NYC,Union Sq - 14th St,40.73587227,-73.99053886
NYC,23rd St,40.74130267,-73.989344
NYC,Prospect Ave,40.66541367,-73.992872
NYC,4th Av - 9th St,40.67084667,-73.988302
NYC,3rd Ave,40.732691,-73.98575
NYC,Union Sq - 14th St,40.73476331,-73.99066977
NYC,Liberty Ave,40.674542,-73.896548
NYC,Broadway Junction,40.67833367,-73.905316
NYC,59th St,40.64136167,-74.017881
NYC,45th St,40.64893867,-74.010006
NYC,36th St,40.65514367,-74.003549
NYC,9th Ave,40.64648408,-73.99444874
NYC,53rd St,40.64506867,-74.014034
NYC,Ft Hamilton Pkwy,40.64091271,-73.99420224
NYC,25th St,40.66039667,-73.998091
NYC,Carroll St,40.68027335,-73.99494698
NYC,Spring St,40.726227,-74.003739
NYC,181st St,40.851695,-73.937969
NYC,190th St,40.859022,-73.93418
NYC,116th St,40.80505813,-73.95479778
NYC,125th St,40.81107167,-73.952248
NYC,Prince St,40.72432867,-73.997702
NYC,8th St - NYU,40.730465,-73.992508
NYC,Fulton St,40.709416,-74.006571
NYC,Park Pl,40.713051,-74.008811
NYC,Chambers St,40.715478,-74.009266
NYC,Hoyt St,40.69054419,-73.9850638
NYC,Borough Hall,40.693219,-73.989998
NYC,183rd St,40.858407,-73.903879
NYC,Fordham Rd,40.862803,-73.901034
NYC,World Trade Center,40.71256393,-74.00974462
NYC,Canal St - Holland Tunnel,40.720824,-74.005229
NYC,155th St,40.830518,-73.941514
NYC,163rd St - Amsterdam Av,40.836013,-73.939892
NYC,Fulton St,40.71002267,-74.007938
NYC,Chambers St,40.71323379,-74.00340673
NYC,Canal St,40.71817388,-73.99982639
NYC,City Hall,40.71327233,-74.00698582
NYC,Canal St,40.719465,-74.001826
NYC,South Ferry,40.70173051,-74.01316896
NYC,Bowling Green,40.704914,-74.014008
NYC,Wall St,40.707557,-74.011862
NYC,Whitehall St,40.70314237,-74.01300724
NYC,Rector St,40.70774476,-74.01297456
NYC,Fresh Pond Rd,40.706226,-73.895898
NYC,Middle Village - Metropolitan Ave,40.71143131,-73.88957723
NYC,Rector St,40.707513,-74.013783
NYC,Cortlandt St,40.711835,-74.012188
NYC,Fulton St,40.710368,-74.009509
NYC,Broad St,40.706476,-74.011056
NYC,Cortlandt St,40.71051298,-74.01113196
NYC,Wall St,40.706821,-74.0091
NYC,Dyckman St,40.865491,-73.927271
NYC,Grand St,40.718267,-73.993753
NYC,Broadway - Lafayette St,40.725297,-73.996204
NYC,Bowery,40.72024688,-73.99380691
NYC,Canal St,40.71881426,-74.00105471
NYC,23rd St,40.745906,-73.998041
NYC,34th St - Penn Station,40.752287,-73.993391
NYC,Jackson Hts - Roosevelt Av,40.74653969,-73.89129867
NYC,14th St,40.737826,-74.000201
NYC,135th St,40.81790556,-73.94753481
NYC,14th St,40.738228,-73.996209
NYC,6th Ave,40.73774147,-73.99775079
NYC,8th Ave,40.73977667,-74.002578
NYC,14th St,40.740893,-74.00169
NYC,Nostrand Ave,40.66993815,-73.95042625
NYC,Clark St,40.697466,-73.993086
NYC,Franklin Ave,40.68137967,-73.956848
NYC,Clinton - Washington Aves,40.683263,-73.965838
NYC,Forest Ave,40.704412,-73.903075
NYC,110th St,40.79502,-73.94425
NYC,86th St,40.779492,-73.955589
NYC,York St,40.69974267,-73.986885
NYC,High St,40.699337,-73.990531
NYC,Lafayette Ave,40.686113,-73.973946
NYC,President St,40.6678836,-73.9505892
NYC,Woodlawn,40.886037,-73.878751
NYC,Bleecker St,40.72591467,-73.994659
NYC,103rd St,40.7906,-73.947478
NYC,Euclid Ave,40.675377,-73.872106
NYC,88th St,40.679843,-73.85147
NYC,Cortelyou Rd,40.64094017,-73.96379006
NYC,116th St,40.798629,-73.941617
NYC,Parkchester,40.833226,-73.860816
NYC,Franklin St,40.719318,-74.006886
NYC,80th St,40.679371,-73.858992
NYC,5th Ave - Bryant Pk,40.753821,-73.981963
NYC,Spring St,40.722301,-73.997141
NYC,125th St,40.804138,-73.937594
NYC,Coney Island - Stillwell Av,40.577281,-73.981236
NYC,34th St - Hudson Yards,40.75544636,-74.00219709
NYC,72nd St,40.76880251,-73.95836179
NYC,86th St,40.77786104,-73.95177091
NYC,96th St,40.78423665,-73.94706602
SF,12th St. Oakland City Center ,37.803768,-122.27145
SF,16th St. Mission ,37.765062,-122.419694
SF,19th St. Oakland ,37.80835,-122.268602
SF,24th St. Mission ,37.75247,-122.418143
SF,Ashby ,37.852803,-122.270062
SF,Balboa Park ,37.721585,-122.447506
SF,Bay Fair ,37.696924,-122.126514
SF,Castro Valley ,37.690746,-122.075602
SF,Civic Center/UN Plaza ,37.779732,-122.414123
SF,Coliseum/Oakland Airport ,37.753661,-122.196869
SF,Colma ,37.684638,-122.466233
SF,Concord ,37.973737,-122.029095
SF,Daly City ,37.706121,-122.469081
SF,Downtown Berkeley ,37.870104,-122.268133
SF,El Cerrito del Norte ,37.925086,-122.316794
SF,Dublin/Pleasanton ,37.701687,-121.899179
SF,Embarcadero ,37.792874,-122.39702
SF,Fremont ,37.557465,-121.976608
SF,Fruitvale ,37.774836,-122.224175
SF,Glen Park ,37.733064,-122.433817
SF,Hayward ,37.669723,-122.087018
SF,Lafayette ,37.893176,-122.12463
SF,Lake Merritt ,37.797027,-122.26518
SF,MacArthur ,37.829065,-122.26704
SF,Millbrae ,37.600271,-122.386702
SF,Montgomery St. ,37.789405,-122.401066
SF,North Berkeley ,37.873967,-122.28344
SF,North Concord/Martinez ,38.003193,-122.024653
SF,Oakland Airport ,37.713238,-122.212191
SF,Orinda ,37.878361,-122.183791
SF,Pleasant Hill/Contra Costa Centre ,37.928468,-122.056012
SF,Pittsburg/Bay Point ,38.018914,-121.945154
SF,El Cerrito Plaza ,37.902632,-122.298904
SF,Powell St. ,37.784471,-122.407974
SF,Richmond ,37.936853,-122.353099
SF,Rockridge ,37.844702,-122.251371
SF,San Leandro ,37.721947,-122.160844
SF,San Bruno ,37.637761,-122.416287
SF,San Francisco Int'l Airport ,37.615966,-122.392409
SF,South Hayward ,37.634375,-122.057189
SF,South San Francisco ,37.664245,-122.44396
SF,Union City ,37.59063,-122.017388
SF,Warm Springs/South Fremont ,37.502171,-121.939313
SF,Walnut Creek ,37.905522,-122.067527
SF,West Dublin/Pleasanton ,37.699756,-121.92824
SF,West Oakland ,37.804872,-122.29514
Chicago,18th,41.857908,-87.669147
Chicago,35th/Archer,41.829353,-87.680622
Chicago,35th-Bronzeville-IIT,41.831677,-87.625826
Chicago,43rd,41.816462,-87.619021
Chicago,47th,41.809209,-87.618826
Chicago,47th,41.810318,-87.63094
Chicago,51st,41.80209,-87.618487
Chicago,54th/Cermak,41.85177331,-87.75669201
Chicago,63rd,41.780536,-87.630952
Chicago,69th,41.768367,-87.625724
Chicago,79th,41.750419,-87.625112
Chicago,87th,41.735372,-87.624717
Chicago,95th/Dan Ryan,41.722377,-87.624342
Chicago,95th/Ran Ryan,41.722377,-87.624342
Chicago,Adams/Wabash,41.879507,-87.626037
Chicago,Addison,41.94738,-87.71906
Chicago,Addison,41.947028,-87.674642
Chicago,Addison,41.947428,-87.653626
Chicago,Argyle,41.973453,-87.65853
Chicago,Armitage,41.918217,-87.652644
Chicago,Ashland,41.839234,-87.665317
Chicago,Ashland/63rd,41.77886,-87.663766
Chicago,Austin,41.870851,-87.776812
Chicago,Austin,41.887293,-87.774135
Chicago,Belmont,41.939751,-87.65338
Chicago,Belmont,41.938132,-87.712359
Chicago,Berwyn,41.977984,-87.658668
Chicago,Bryn Mawr,41.983504,-87.65884
Chicago,California,41.854109,-87.694774
Chicago,California,41.921939,-87.69689
Chicago,California,41.88422,-87.696234
Chicago,Central,42.063987,-87.685617
Chicago,Central,41.887389,-87.76565
Chicago,Central Park,41.853839,-87.714842
Chicago,Cermak-Chinatown,41.853206,-87.630968
Chicago,Cermak-McCormick Place,41.853115,-87.626402
Chicago,Ashland,41.885269,-87.666969
Chicago,Chicago,41.89681,-87.635924
Chicago,Chicago,41.896075,-87.655214
Chicago,Chicago,41.896671,-87.628176
Chicago,Cicero,41.871574,-87.745154
Chicago,Cicero,41.85182,-87.745336
Chicago,Cicero,41.886519,-87.744698
Chicago,Clark/Division,41.90392,-87.631412
Chicago,Clark/Lake,41.885737,-87.630886
Chicago,Clinton,41.885678,-87.641782
Chicago,Clinton,41.875539,-87.640984
Chicago,Conservatory,41.884904,-87.716523
Chicago,Cottage Grove,41.780309,-87.605857
Chicago,Cumberland,41.984246,-87.838028
Chicago,Damen,41.966286,-87.678639
Chicago,Damen,41.854517,-87.675975
Chicago,Damen,41.909744,-87.677437
Chicago,Davis,42.04771,-87.683543
Chicago,Dempster,42.041655,-87.681602
Chicago,Dempster-Skokie,42.038951,-87.751919
Chicago,Diversey,41.932732,-87.653131
Chicago,Division,41.903355,-87.666496
Chicago,Forest Park,41.874257,-87.817318
Chicago,Foster,42.05416,-87.68356
Chicago,Francisco,41.966046,-87.701644
Chicago,Fullerton,41.925051,-87.652866
Chicago,Garfield,41.795172,-87.618327
Chicago,Garfield,41.79542,-87.631157
Chicago,Grand,41.891189,-87.647578
Chicago,Grand,41.891665,-87.628021
Chicago,Granville,41.993664,-87.659202
Chicago,Halsted,41.778943,-87.644244
Chicago,Halsted,41.84678,-87.648088
Chicago,Harlem,41.87349,-87.806961
Chicago,Harlem,41.98227,-87.8089
Chicago,Harlem/Lake,41.886848,-87.803176
Chicago,Harold Washington Library-State/Van Buren,41.876862,-87.628196
Chicago,Harrison,41.874039,-87.627479
Chicago,Howard,42.019063,-87.672892
Chicago,Illinois Medical District,41.875706,-87.673932
Chicago,Indiana,41.821732,-87.621371
Chicago,Irving Park,41.954521,-87.674868
Chicago,Irving Park,41.952925,-87.729229
Chicago,Jackson,41.878183,-87.629296
Chicago,Jackson,41.878153,-87.627596
Chicago,Jarvis,42.015876,-87.669092
Chicago,Jefferson Park,41.970634,-87.760892
Chicago,Kedzie,41.965996,-87.708821
Chicago,Kedzie,41.804236,-87.704406
Chicago,Kedzie,41.853964,-87.705408
Chicago,Kedzie,41.884321,-87.706155
Chicago,Kedzie-Homan,41.874341,-87.70604
Chicago,Kimball,41.967901,-87.713065
Chicago,King Drive,41.78013,-87.615546
Chicago,Kostner,41.853751,-87.733258
Chicago,Lake,41.884809,-87.627813
Chicago,Laramie,41.887163,-87.754986
Chicago,LaSalle,41.875568,-87.631722
Chicago,LaSalle/Van Buren,41.8768,-87.631739
Chicago,Lawrence,41.969139,-87.658493
Chicago,Linden,42.073153,-87.69073
Chicago,Logan Square,41.929728,-87.708541
Chicago,Loyola,42.001073,-87.661061
Chicago,Main,42.033456,-87.679538
Chicago,Merchandise Mart,41.888969,-87.633924
Chicago,Midway,41.78661,-87.737875
Chicago,Monroe,41.880703,-87.629378
Chicago,Monroe,41.880745,-87.627696
Chicago,Montrose,41.961539,-87.743574
Chicago,Montrose,41.961756,-87.675047
Chicago,Morgan,41.885586,-87.652193
Chicago,Morse,42.008362,-87.665909
Chicago,North/Clybourn,41.910655,-87.649177
Chicago,Noyes,42.058282,-87.683337
Chicago,Oak Park,41.886988,-87.793783
Chicago,Oak Park,41.872108,-87.791602
Chicago,Oakton-Skokie,42.02624348,-87.74722084
Chicago,O'Hare,41.97766526,-87.90422307
Chicago,Paulina,41.943623,-87.670907
Chicago,Polk,41.871551,-87.66953
Chicago,Pulaski,41.853732,-87.724311
Chicago,Pulaski,41.799756,-87.724493
Chicago,Pulaski,41.873797,-87.725663
Chicago,Pulaski,41.885412,-87.725404
Chicago,Quincy/Wells,41.878723,-87.63374
Chicago,Racine,41.87592,-87.659458
Chicago,Ridgeland,41.887159,-87.783661
Chicago,Rockwell,41.966115,-87.6941
Chicago,Roosevelt,41.867405,-87.62659
Chicago,Roosevelt,41.867368,-87.627402
Chicago,Rosemont,41.983507,-87.859388
Chicago,Sedgwick,41.910409,-87.639302
Chicago,Sheridan,41.953775,-87.654929
Chicago,South Boulevard,42.027612,-87.678329
Chicago,Southport,41.943744,-87.663619
Chicago,Sox-35th,41.831191,-87.630636
Chicago,State/Lake,41.88574,-87.627835
Chicago,Thorndale,41.990259,-87.659076
Chicago,UIC-Halsted,41.875474,-87.649707
Chicago,Washington,41.883164,-87.62944
Chicago,Washington/Wabash,41.88322,-87.626189
Chicago,Washington/Wells,41.882695,-87.63378
Chicago,Wellington,41.936033,-87.653266
Chicago,Western,41.916157,-87.687364
Chicago,Western,41.966163,-87.688502
Chicago,Western,41.854225,-87.685129
Chicago,Western,41.804546,-87.684019
Chicago,Western,41.875478,-87.688436
Chicago,Wilson,41.964273,-87.657588
DC,Pentagon,38.869349,-77.054013
DC,Pentagon City,38.863045,-77.059507
DC,Crystal City,38.85779,-77.050589
DC,Ronald Reagan Washington National Airport,38.852985,-77.043805
DC,Braddock Road,38.814009,-77.053763
DC,King St-Old Town,38.806474,-77.061115
DC,Eisenhower Avenue,38.800313,-77.071173
DC,Huntington,38.793841,-77.075301
DC,Mt Vernon Sq 7th St-Convention Center,38.905604,-77.022256
DC,Shaw-Howard U,38.912919,-77.022194
DC,U Street/African-Amer Civil War Memorial/Cardozo,38.916489,-77.028938
DC,Columbia Heights,38.928672,-77.032775
DC,Georgia Ave-Petworth,38.936077,-77.024728
DC,Fort Totten,38.951777,-77.002174
DC,Gallery Pl-Chinatown,38.89834,-77.021851
DC,Archives-Navy Memorial-Penn Quarter,38.893893,-77.021902
DC,L'Enfant Plaza,38.884775,-77.021964
DC,Metro Center,38.898303,-77.028099
DC,McPherson Square,38.901316,-77.033652
DC,Farragut West,38.901311,-77.03981
DC,Foggy Bottom-GWU,38.900599,-77.050273
DC,Rosslyn,38.896595,-77.07146
DC,Arlington Cemetery,38.884574,-77.063108
DC,Federal Triangle,38.893757,-77.028218
DC,Smithsonian,38.888022,-77.028232
DC,L'Enfant Plaza,38.884775,-77.021964
DC,Federal Center SW,38.884958,-77.01586
DC,Capitol South,38.884968,-77.005137
DC,Eastern Market,38.884124,-76.995334
DC,Potomac Ave,38.880841,-76.985721
DC,Stadium-Armory,38.88594,-76.977485
DC,Benning Road,38.890488,-76.938291
DC,Capitol Heights,38.889757,-76.913382
DC,Addison Road-Seat Pleasant,38.886713,-76.893592
DC,Morgan Boulevard,38.8913,-76.8682
DC,Largo Town Center,38.9008,-76.8449
DC,Van Dorn Street,38.799193,-77.129407
DC,Franconia-Springfield,38.766129,-77.168797
DC,West Hyattsville,38.954931,-76.969881
DC,Prince George's Plaza,38.965276,-76.956182
DC,College Park-U of Md,38.978523,-76.928432
DC,Greenbelt,39.011036,-76.911362
DC,Waterfront,38.876221,-77.017491
DC,Navy Yard-Ballpark,38.876588,-77.005086
DC,Anacostia,38.862072,-76.995648
DC,Congress Heights,38.845334,-76.98817
DC,Southern Avenue,38.840974,-76.97536
DC,Naylor Road,38.851187,-76.956565
DC,Suitland,38.843891,-76.932022
DC,Branch Ave,38.826995,-76.912134
DC,Minnesota Ave,38.898284,-76.948042
DC,Deanwood,38.907734,-76.936177
DC,Cheverly,38.91652,-76.915427
DC,Landover,38.934411,-76.890988
DC,New Carrollton,38.947674,-76.872144
DC,Court House,38.891499,-77.08391
DC,Clarendon,38.886373,-77.096963
DC,Virginia Square-GMU,38.88331,-77.104267
DC,Ballston-MU,38.882071,-77.111845
DC,East Falls Church,38.885841,-77.157177
DC,West Falls Church-VT/UVA,38.90067,-77.189394
DC,Dunn Loring-Merrifield,38.883015,-77.228939
DC,Vienna/Fairfax-GMU,38.877693,-77.271562
DC,Metro Center,38.898303,-77.028099
DC,Farragut North,38.903192,-77.039766
DC,Dupont Circle,38.909499,-77.04362
DC,Woodley Park-Zoo/Adams Morgan,38.924999,-77.052648
DC,Cleveland Park,38.934703,-77.058226
DC,Van Ness-UDC,38.94362,-77.063511
DC,Tenleytown-AU,38.947808,-77.079615
DC,Friendship Heights,38.960744,-77.085969
DC,Bethesda,38.984282,-77.094431
DC,Medical Center,38.999947,-77.097253
DC,Grosvenor-Strathmore,39.029158,-77.10415
DC,White Flint,39.048043,-77.113131
DC,Twinbrook,39.062359,-77.121113
DC,Rockville,39.084215,-77.146424
DC,Shady Grove,39.119819,-77.164921
DC,Gallery Pl-Chinatown,38.89834,-77.021851
DC,Judiciary Square,38.896084,-77.016643
DC,Union Station,38.897723,-77.006745
DC,Rhode Island Ave-Brentwood,38.920741,-76.995984
DC,Brookland-CUA,38.933234,-76.994544
DC,Fort Totten,38.951777,-77.002174
DC,Takoma,38.975532,-77.017834
DC,Silver Spring,38.993841,-77.031321
DC,Forest Glen,39.015413,-77.042953
DC,Wheaton,39.038558,-77.051098
DC,Glenmont,39.061713,-77.05341
DC,NoMa-Gallaudet U,38.907407,-77.002961
DC,McLean,38.924478,-77.210167
DC,Tysons Corner,38.920056,-77.223314
DC,Greensboro,38.919749,-77.235192
DC,Spring Hill,38.929273,-77.241988
DC,Wiehle-Reston East,38.947753,-77.340179
Boston,23 Drydock Ave,42.344256,-71.0300213
Boston,27 Drydock Ave,42.34428825,-71.02799875
Boston,88 Black Falcon Avenue,42.3438479,-71.02418013
Boston,Airport,42.3743352,-71.0302839
Boston,Alewife,42.355518,-71.060225
Boston,Allston Street ,42.3487394,-71.1380082
Boston,Andrew,42.3300161,-71.0571474
Boston,Aquarium,42.3596754,-71.0515891
Boston,Arlington,42.351771,-71.070969
Boston,Ashmont,42.2834319,-71.0689393
Boston,Assembly,42.269543,-71.09644
Boston,Babcock Street ,42.351794,-71.121279
Boston,Back Bay,42.3507067,-71.0797297
Boston,Back of the Hill ,42.3307916,-71.1115858
Boston,Beachmont,42.3846242,-71.0063473
Boston,Beaconsfield ,42.3464197,-71.14195891
Boston,Bellingham Square,42.3928071,-71.0340735
Boston,Blandford Street ,42.3492331,-71.100037
Boston, College,52.9726701,-0.01793072
Boston, University Central,42.3500889,-71.1071826
Boston, University East,42.3497479,-71.1043114
Boston, University West ,42.3508386,-71.1133639
Boston,Bowdoin ,42.3613048,-71.061995
Boston,Box District,42.3932459,-71.02849186
Boston,Boylston,42.3529861,-71.0645981
Boston,Braintree,42.356282,-71.135274
Boston,Brandon Hall ,52.3563816,-1.440538938
Boston,Brigham Circle,42.334321,-71.104356
Boston,Broadway,42.3859893,-71.0780657
Boston,Brookline Hills,42.30663175,-71.13019614
Boston,Brookline Village,42.33734685,-71.1057172
Boston,Butlerstreet ,42.2733015,-71.0641309
Boston,Capen Street,42.283326,-71.080757
Boston,Cedar Grove,42.2806543,-71.0578279
Boston,Central,42.3602534,-71.0582912
Boston,Central Avenue,42.2576934,-71.1208806
Boston,Charles/MGH,42.3611931,-71.0713401
Boston,Chelsea,42.3956714,-71.0342258
Boston,Chestnut Hill ,42.9395288,-71.6181267
Boston,Chestnut Hill Avenue ,42.3383473,-71.1529116
Boston,Chinatown,42.3522166,-71.0626074
Boston,Chiswick Road ,42.3406056,-71.1510169
Boston,Cleveland Circle,42.3356053,-71.1509421
Boston,Community College,42.3736041,-71.0697241
Boston,Coolidge Corner,42.35215405,-71.11770509
Boston,Copley,42.3500901,-71.0773641
Boston,Courthouse,42.3592099,-71.0611796
Boston,Davis,42.281418,-71.0480749
Boston,Dean Road ,42.3369799,-71.1422675
Boston,Design Center,42.33687295,-71.0993026
Boston,Downtown Crossing,42.3551473,-71.0599539
Boston,Dudley street,42.3252735,-71.0749617
Boston,East Berkeley Street,42.344647,-71.068076
Boston,Eastern Avenue,42.3641587,-71.0507029
Boston,Eliot ,42.32992935,-71.09082195
Boston,Englewood Avenue ,42.3379418,-71.1486135
Boston,Fairbanks ,65.2346755,-147.1211816
Boston,Fenway,42.343451,-71.0977164
Boston,Fenwood Road ,42.3340172,-71.1059926
Boston,Fields Corner,42.3000984,-71.0578281
Boston,Forest Hills,42.2967648,-71.1119963
Boston,Government Center ,42.3594924,-71.0593031
Boston,Green,42.3602534,-71.0582912
Boston,Griggs Street ,42.3486294,-71.1340637
Boston,Harvard,42.36782045,-71.12666653
Boston,Harvard Avenue,42.3502469,-71.1314516
Boston,Hawes Street ,42.3578153,-71.0561655
Boston,Haymarket,42.3621193,-71.0578172
Boston,Heath Street,42.324908,-71.098272
Boston,Herald Street,42.346896,-71.0658712
Boston,Hynes Convention Center ,42.34712945,-71.08400434
Boston,Jackson Square,42.322592,-71.100246
Boston,JFK/UMass,42.3205425,-71.0523783
Boston,Kendall,42.4119882,-71.18810777
Boston,Kenmore,42.3489672,-71.0956557
Boston,Beacon Street ,42.3488142,-71.0974362
Boston,Lechmere,42.3709671,-71.0774948
Boston,Lenox Street,42.3378396,-71.0828394
Boston,Longwood,42.3361685,-71.0995274
Boston,Longwood Medical Area,42.3361685,-71.0995274
Boston,Malden Center,42.428758,-71.0741434
Boston,Massachusetts Avenue,42.3204879,-71.0615585
Boston,Mattapan,42.2675061,-71.0924304
Boston,Maverick,42.3691041,-71.0395764
Boston,Melnea Cass Boulevard,42.3349169,-71.0851559
Boston,Milton,43.5498742,-79.9107485
Boston,Mission Park ,42.3331908,-71.109597
Boston,Museum of Fine Arts,42.337905,-71.0950117
Boston,Newton Centre,42.3512961,-71.1681691
Boston,Newton Highlands,42.3512961,-71.1681691
Boston,Newton Street,42.356114,-71.168053
Boston,North Quincy,42.2798697,-71.0452484
Boston,North Station,42.3652806,-71.0601514
Boston,Northeastern University,42.3383668,-71.08793524
Boston,Northern Avenue & Harbor Street,42.346634,-71.035301
Boston,Northern Avenue & Tide Street,42.345192,-71.031998
Boston,Oak Grove,42.3602534,-71.0582912
Boston,Orient Heights,42.3912083,-71.0069944
Boston,Packards Corner ,42.3517566,-71.1253325
Boston,Park Street,42.3729836,-71.0609542
Boston,Pleasant Street ,42.3184781,-71.0588833
Boston,Porter,42.3691537,-71.0282222
Boston,Prudential,42.345596,-71.081361
Boston,Quincy Adams,42.233274,-71.0068894
Boston,Quincy Center,42.2462086,-71.0048428
Boston,Reservoir,42.3602534,-71.0582912
Boston,Revere Beach,42.4394497,-70.9690795
Boston,Riverside,52.985536,-0.0337585
Boston,Riverway ,42.34269325,-71.107252
Boston,Roxbury Crossing,42.3306533,-71.0911627
Boston,Ruggles,42.3366072,-71.0893384
Boston,Savin Hill,42.3106539,-71.0494947
Boston,Science Park ,42.3667494,-71.0678168
Boston,Shawmut,42.2931386,-71.0658172
Boston,Silver Line Way,42.3471377,-71.0391207
Boston,South Station,42.35184265,-71.0550229
Boston,South Street ,42.3398175,-71.1575632
Boston,St. Marys Street,42.3500221,-71.1065712
Boston,St. Paul Street ,42.3511306,-71.1157803
Boston,St. Paul Street ,42.3511306,-71.1157803
Boston,State,42.3602534,-71.0582912
Boston,Stony Brook,42.317224,-71.10428
Boston,Suffolk Downs,42.39051,-70.9971875
Boston,Sullivan Square,42.3843004,-71.0770317
Boston,Summit Avenue ,42.345093,-71.139804
Boston,Sutherland Road ,42.3399846,-71.1482658
Boston,Symphony ,42.3426644,-71.0848336
Boston,Tappan Street ,42.289375,-71.132456
Boston,Terminal A,42.36544185,-71.02286424
Boston,Terminal B Stop 1,42.361393,-71.018661
Boston,Terminal B Stop 2,42.364578,-71.018845
Boston,Terminal C,42.36673175,-71.01642053
Boston,Terminal E,42.3694723,-71.0191817
Boston,Tufts Medical Center,42.3495588,-71.0634112
Boston,Union Park Street,42.3405567,-71.0679382
Boston,Valley Road ,42.277576,-71.068016
Boston,Waban,42.3273475,-71.2292763
Boston,Warren Street ,42.3484068,-71.140445
Boston,Washington Square Brookline,42.3395004,-71.1348085
Boston,Washington Street,42.3440542,-71.1426459
Boston,Wellington Revere Beach Parkway,42.4051403,-71.0810427
Boston,Wollaston ,42.2868127,-71.0830769
Boston,Wonderland,42.935891,-81.2798438
Boston,Wood Island,42.3796991,-71.0228172
Boston,Woodland,42.17368655,-83.38971714
Boston,Worcester Square,42.336663,-71.074505
Boston,World Trade Center,42.3517644,-71.0403282
LA,1st Street Long Beach,33.7456454,-118.1114786
LA,5th Street Long Beach,33.7735381,-118.1893802
LA,7th Street/Metro Center ,34.0487072,-118.2587137
LA,17th Street/Santa Monica College Santa Monica,34.0231296,-118.4803522
LA,26th Street/Bergamot Santa Monica,34.0280475,-118.4691286
LA,103rd Street/Watts Towers ,33.9422594,-118.24316
LA,Allen Pasadena,34.1524613,-118.1139024
LA,Anaheim Street Long Beach,33.7826041,-118.1532831
LA,APU/Citrus College Azusa,34.1368534,-117.8916493
LA,Arcadia ,34.1362075,-118.0401497
LA,Artesia Compton,33.8761055,-118.2225161
LA,Atlantic East ,34.0334012,-118.1545923
LA,Avalon ,33.34221,-118.3272612
LA,Aviation/LAX ,33.9296834,-118.3772095
LA,Azusa Downtown Azusa,34.135797,-117.9068023
LA,Chinatown ,34.0638128,-118.2359235
LA,Civic Center/Grand Park ,34.0550545,-118.2460654
LA,Compton ,33.894927,-118.226624
LA,Crenshaw Hawthorne,33.9251546,-118.3265038
LA,Culver City Culver City,34.0278787,-118.3888493
LA,Del Amo Rancho Dominguez,33.8481867,-118.2110003
LA,Del Mar Pasadena,34.1418981,-118.148243
LA,Douglas El Segundo,33.9055606,-118.3834672
LA,Downtown Long Beach Long Beach,33.7680675,-118.1929576
LA,Downtown Santa Monica Santa Monica,34.01403845,-118.4914105
LA,Duarte/City of Hope Duarte,34.1325471,-117.9674951
LA,East LA Civic Center East ,34.0353821,-118.1594591
LA,El Segundo El Segundo,33.9161917,-118.3867903
LA,Expo/Bundy ,34.0316922,-118.4527184
LA,Expo/Crenshaw ,34.0225179,-118.3349741
LA,Expo/La Brea ,34.024749,-118.3549711
LA,Expo/Sepulveda ,34.0354266,-118.4344997
LA,Expo/Vermont ,34.01825,-118.2917403
LA,Expo/Western ,34.0183389,-118.3090009
LA,Expo Park/USC ,34.0182529,-118.2859849
LA,Farmdale ,34.0239655,-118.3461599
LA,Fillmore Pasadena,34.1331873,-118.1481626
LA,Firestone Florence-Graham,33.9601454,-118.2385239
LA,Florence Florence-Graham,33.9738422,-118.243246
LA,Grand/LATTC ,34.0332079,-118.2693483
LA,Harbor Freeway ,34.0104743,-118.2812773
LA,Hawthorne/Lennox Hawthorne,33.9335004,-118.3519756
LA,Heritage Square ,34.0880367,-118.2083916
LA,Highland Park ,34.1099469,-118.1969828
LA,Hollywood/Highland ,34.1024744,-118.3402589
LA,Hollywood/Vine ,34.1016156,-118.3255283
LA,Hollywood/Western ,34.1016867,-118.3092033
LA,Indiana ,34.0342567,-118.1922123
LA,Irwindale Irwindale,34.1290456,-117.9326907
LA,Jefferson/USC ,34.0219865,-118.2776874
LA,La Cienega/Jefferson ,34.0263634,-118.3721521
LA,Lake Pasadena,34.1476452,-118.1444779
LA,Lakewood Boulevard Downey,33.9169614,-118.1376465
LA,LATTC/Ortho Institute ,34.02914385,-118.2735803
LA,Lincoln/Cypress ,34.0807272,-118.220778
LA,Little Tokyo / Arts District ,34.0500635,-118.2379448
LA,Long Beach Boulevard Lynwood,33.9223137,-118.2098101
LA,Maravilla East ,34.0332976,-118.1681507
LA,Mariachi Plaza ,34.0473993,-118.218896
LA,Mariposa El Segundo,33.9232068,-118.3875199
LA,Memorial Park Pasadena,34.1484733,-118.1474916
LA,Monrovia ,34.1483499,-118.0014517
LA,North Hollywood ,34.1729044,-118.3740371
LA,Norwalk Norwalk,33.9140388,-118.1046324
LA,Pacific Avenue Long Beach,33.7741328,-118.193786
LA,Pacific Coast Highway Long Beach,33.775012,-118.12242
LA,Palms ,34.0215431,-118.414635
LA,Pershing Square ,34.0483134,-118.2530479
LA,Pico ,34.377498,-118.6120323
LA,Pico / Aliso ,34.0476438,-118.2260163
LA,Redondo Beach Redondo Beach,33.8455911,-118.3886766
LA,San Pedro ,33.7358518,-118.2922934
LA,Sierra Madre Villa Pasadena,34.1478094,-118.0811922
LA,Slauson Florence-Graham,33.9886535,-118.2434457
LA,Soto ,34.043758,-118.2100726
LA,South Pasadena South Pasadena,34.1150655,-118.1580431
LA,Southwest Museum ,34.0984706,-118.2062943
LA,Union Station ,34.055915,-118.2347667
LA,Universal City ,34.1412926,-118.3584364
LA,Vermont/Athens ,33.9286905,-118.2918683
LA,Vermont/Beverly ,34.0763859,-118.2917401
LA,Vermont/Santa Monica ,34.0908334,-118.2917024
LA,Vermont/Sunset ,34.0981941,-118.2917025
LA,Vernon ,34.007135,-118.22525
LA,Wardlow Long Beach,33.8199253,-118.1960927
LA,Washington ,33.8480614,-118.0812441
LA,Westlake/MacArthur Park ,34.0567711,-118.2759007
LA,Westwood/Rancho Park ,34.0368073,-118.4244022
LA,Willow Street Long Beach,33.8032656,-118.1425961
LA,Willowbrook/Rosa Parks Willowbrook,33.9282258,-118.2376486
LA,Wilshire/Normandie ,34.0616353,-118.3009017
LA,Wilshire/Vermont ,34.062644,-118.2905889
LA,Wilshire/Western ,34.0620626,-118.3088351
